[
  {
    "name": "Auto China (Beijing Motor Show)",
    "website": "https://www.autochina-beijing.com/",
    "city": "Beijing",
    "country": "China",
    "venue": "China National Convention Center",
    "start_date": "2026-04-21",
    "end_date": "2026-04-30",
    "frequency": "Biennial",
    "industry": "Automotive",
    "region": "Asia",
    "tier": 2,
    "lat": 39.901,
    "lng": 116.3918
  },
  {
    "name": "Auto Shanghai",
    "website": "http://www.autoshow.com.cn/",
    "city": "Shanghai",
    "country": "China",
    "venue": "Shanghai New International Expo Centre",
    "start_date": "2027-04-21",
    "end_date": "2027-04-30",
    "frequency": "Biennial",
    "industry": "Automotive",
    "region": "Asia",
    "tier": 2,
    "lat": 31.2681,
    "lng": 121.5026
  },
  {
    "name": "Automechanika Shanghai",
    "website": "https://automechanika-shanghai.hk.messefrankfurt.com/",
    "city": "Shanghai",
    "country": "China",
    "venue": "Shanghai New International Expo Centre",
    "start_date": "2026-12-02",
    "end_date": "2026-12-05",
    "frequency": "Annual",
    "industry": "Automotive",
    "region": "Asia",
    "tier": 2,
    "lat": 31.2449,
    "lng": 121.4767
  },
  {
    "name": "Automotive World",
    "website": "https://www.automotiveworld.jp/en-gb.html",
    "city": "Tokyo",
    "country": "Japan",
    "venue": "Tokyo Big Sight",
    "start_date": "2026-01-21",
    "end_date": "2026-01-23",
    "frequency": "Annual",
    "industry": "Automotive",
    "region": "Asia",
    "tier": 2,
    "lat": 35.6371,
    "lng": 139.668
  },
  {
    "name": "Bauma China",
    "website": "https://www.bauma-china.com/",
    "city": "Shanghai",
    "country": "China",
    "venue": "Shanghai New International Expo Centre",
    "start_date": "2026-11-24",
    "end_date": "2026-11-27",
    "frequency": "Biennial",
    "industry": "Construction & Building Materials",
    "region": "Asia",
    "tier": 2,
    "lat": 31.1924,
    "lng": 121.4926
  },
  {
    "name": "CIIE",
    "website": "https://www.ciie.org/",
    "city": "Shanghai",
    "country": "China",
    "venue": "Shanghai New International Expo Centre",
    "start_date": "2026-11-05",
    "end_date": "2026-11-10",
    "frequency": "Annual",
    "industry": "General Merchandise",
    "region": "Asia",
    "tier": 1,
    "lat": 31.2267,
    "lng": 121.51
  },
  {
    "name": "CMEF (China International Medical Equipment Fair)",
    "website": "https://en.cmef.com.cn/",
    "city": "Shenzhen",
    "country": "China",
    "venue": "Shenzhen Convention & Exhibition Center",
    "start_date": "2026-10-14",
    "end_date": "2026-10-17",
    "frequency": "Biannual",
    "industry": "Healthcare & Medical",
    "region": "Asia",
    "tier": 2,
    "lat": 22.5353,
    "lng": 114.045
  },
  {
    "name": "COMPUTEX",
    "website": "https://www.computextaipei.com.tw/",
    "city": "Taipei",
    "country": "Taiwan",
    "venue": "Taipei World Trade Center",
    "start_date": "2026-06-02",
    "end_date": "2026-06-06",
    "frequency": "Annual",
    "industry": "Technology & Electronics",
    "region": "Asia",
    "tier": 2,
    "lat": 25.0519,
    "lng": 121.5795
  },
  {
    "name": "CPHI India",
    "website": "https://www.cphi.com/india/",
    "city": "Mumbai",
    "country": "India",
    "venue": "Bombay Exhibition Centre",
    "start_date": "2026-11-24",
    "end_date": "2026-11-26",
    "frequency": "Annual",
    "industry": "Pharmaceutical",
    "region": "Asia",
    "tier": 2,
    "lat": 19.0564,
    "lng": 72.8944
  },
  {
    "name": "CPhI Japan",
    "website": "https://www.cphi.com/japan/",
    "city": "Tokyo",
    "country": "Japan",
    "venue": "Tokyo Big Sight",
    "start_date": "2026-06-24",
    "end_date": "2026-06-26",
    "frequency": "Annual",
    "industry": "Pharmaceutical",
    "region": "Asia",
    "tier": 2,
    "lat": 35.7137,
    "lng": 139.6566
  },
  {
    "name": "CPhI Southeast Asia",
    "website": "https://www.cphi.com/southeastasia/",
    "city": "Jakarta",
    "country": "Indonesia",
    "venue": "Jakarta Convention Center",
    "start_date": "2026-03-10",
    "end_date": "2026-03-12",
    "frequency": "Annual",
    "industry": "Pharmaceutical",
    "region": "Asia",
    "tier": 2,
    "lat": -6.2386,
    "lng": 106.8392
  },
  {
    "name": "Canton Fair",
    "website": "https://www.cantonfair.org.cn/",
    "city": "Guangzhou",
    "country": "China",
    "venue": "Canton Fair Complex",
    "start_date": "2026-04-15",
    "end_date": "2026-04-19",
    "frequency": "Biannual",
    "industry": "General Merchandise",
    "region": "Asia",
    "tier": 1,
    "lat": 23.098,
    "lng": 113.2592
  },
  {
    "name": "CeMAT ASIA",
    "website": "https://www.cemat-asia.com/",
    "city": "Shanghai",
    "country": "China",
    "venue": "Shanghai New International Expo Centre",
    "start_date": "2026-10-27",
    "end_date": "2026-10-30",
    "frequency": "Annual",
    "industry": "Logistics & Supply Chain",
    "region": "Asia",
    "tier": 2,
    "lat": 31.2075,
    "lng": 121.4443
  },
  {
    "name": "Cosmoprof Asia",
    "website": "https://www.cosmoprofasia.com/",
    "city": "Hong Kong",
    "country": "Hong Kong",
    "venue": "Hong Kong Convention and Exhibition Centre",
    "start_date": "2026-11-11",
    "end_date": "2026-11-13",
    "frequency": "Annual",
    "industry": "Beauty & Personal Care",
    "region": "Asia",
    "tier": 2,
    "lat": 22.2839,
    "lng": 114.1761
  },
  {
    "name": "FOODEX Japan",
    "website": "https://www.jma.or.jp/foodex/en/",
    "city": "Tokyo",
    "country": "Japan",
    "venue": "Tokyo Big Sight",
    "start_date": "2026-03-10",
    "end_date": "2026-03-13",
    "frequency": "Annual",
    "industry": "Food & Beverage",
    "region": "Asia",
    "tier": 2,
    "lat": 35.704,
    "lng": 139.6586
  },
  {
    "name": "Food & Hotel Asia",
    "website": "https://www.fhashow.com/",
    "city": "Singapore",
    "country": "Singapore",
    "venue": "Marina Bay Sands Expo",
    "start_date": "2026-04-22",
    "end_date": "2026-04-25",
    "frequency": "Biennial",
    "industry": "Food & Beverage",
    "region": "Asia",
    "tier": 2,
    "lat": 1.3652,
    "lng": 103.8062
  },
  {
    "name": "GITEX Singapore",
    "website": "https://www.gitex.com/gitex-asia/",
    "city": "Singapore",
    "country": "Singapore",
    "venue": "Marina Bay Sands Expo",
    "start_date": "2026-05-20",
    "end_date": "2026-05-22",
    "frequency": "Annual",
    "industry": "Technology & Electronics",
    "region": "Asia",
    "tier": 2,
    "lat": 1.3715,
    "lng": 103.8335
  },
  {
    "name": "Hong Kong Fintech Week",
    "website": "https://www.fintechweek.hk/",
    "city": "Hong Kong",
    "country": "Hong Kong",
    "venue": "Hong Kong Convention and Exhibition Centre",
    "start_date": "2026-10-28",
    "end_date": "2026-10-31",
    "frequency": "Annual",
    "industry": "Finance & Fintech",
    "region": "Asia",
    "tier": 2,
    "lat": 22.3512,
    "lng": 114.1462
  },
  {
    "name": "ITB Asia",
    "website": "https://www.itb-asia.com/",
    "city": "Singapore",
    "country": "Singapore",
    "venue": "Marina Bay Sands Expo",
    "start_date": "2026-10-21",
    "end_date": "2026-10-23",
    "frequency": "Annual",
    "industry": "Travel & Tourism",
    "region": "Asia",
    "tier": 2,
    "lat": 1.3552,
    "lng": 103.8382
  },
  {
    "name": "Interop Tokyo",
    "website": "https://www.interop.jp/",
    "city": "Tokyo",
    "country": "Japan",
    "venue": "Tokyo Big Sight",
    "start_date": "2026-06-10",
    "end_date": "2026-06-12",
    "frequency": "Annual",
    "industry": "Technology & Electronics",
    "region": "Asia",
    "tier": 2,
    "lat": 35.701,
    "lng": 139.6108
  },
  {
    "name": "Intertextile Shanghai",
    "website": "https://intertextile-shanghai-apparel-fabrics.hk.messefrankfurt.com/",
    "city": "Shanghai",
    "country": "China",
    "venue": "Shanghai New International Expo Centre",
    "start_date": "2026-09-02",
    "end_date": "2026-09-04",
    "frequency": "Biannual",
    "industry": "Fashion & Textiles",
    "region": "Asia",
    "tier": 2,
    "lat": 31.2353,
    "lng": 121.4547
  },
  {
    "name": "JIMTOF",
    "website": "https://www.jimtof.org/",
    "city": "Tokyo",
    "country": "Japan",
    "venue": "Tokyo Big Sight",
    "start_date": "2026-10-29",
    "end_date": "2026-11-03",
    "frequency": "Biennial",
    "industry": "Manufacturing & Industrial",
    "region": "Asia",
    "tier": 2,
    "lat": 35.654,
    "lng": 139.6756
  },
  {
    "name": "Japan IT Week",
    "website": "https://www.japan-it.jp/en-gb.html",
    "city": "Tokyo",
    "country": "Japan",
    "venue": "Tokyo Big Sight",
    "start_date": "2026-04-08",
    "end_date": "2026-04-10",
    "frequency": "Biannual",
    "industry": "Technology & Electronics",
    "region": "Asia",
    "tier": 2,
    "lat": 35.6537,
    "lng": 139.6507
  },
  {
    "name": "METALTECH & AUTOMEX",
    "website": "https://www.metaltech.com.my/",
    "city": "Kuala Lumpur",
    "country": "Malaysia",
    "venue": "Putra World Trade Centre",
    "start_date": "2026-05-20",
    "end_date": "2026-05-23",
    "frequency": "Biennial",
    "industry": "Manufacturing & Industrial",
    "region": "Asia",
    "tier": 2,
    "lat": 3.1573,
    "lng": 101.7008
  },
  {
    "name": "MIHAS",
    "website": "https://www.mihas.com.my/",
    "city": "Kuala Lumpur",
    "country": "Malaysia",
    "venue": "Putra World Trade Centre",
    "start_date": "2026-09-09",
    "end_date": "2026-09-12",
    "frequency": "Annual",
    "industry": "Food & Beverage",
    "region": "Asia",
    "tier": 2,
    "lat": 3.1381,
    "lng": 101.6806
  },
  {
    "name": "MIPIM Asia Summit",
    "website": "https://www.mipimasia.com/",
    "city": "Hong Kong",
    "country": "Hong Kong",
    "venue": "Hong Kong Convention and Exhibition Centre",
    "start_date": "2026-11-26",
    "end_date": "2026-11-27",
    "frequency": "Annual",
    "industry": "Real Estate",
    "region": "Asia",
    "tier": 2,
    "lat": 22.3211,
    "lng": 114.2042
  },
  {
    "name": "Medical Fair Asia",
    "website": "https://www.medicalfair-asia.com/",
    "city": "Singapore",
    "country": "Singapore",
    "venue": "Marina Bay Sands Expo",
    "start_date": "2026-09-09",
    "end_date": "2026-09-11",
    "frequency": "Biennial",
    "industry": "Healthcare & Medical",
    "region": "Asia",
    "tier": 2,
    "lat": 1.3908,
    "lng": 103.7877
  },
  {
    "name": "NEPCON China",
    "website": "https://www.nepconchina.com/",
    "city": "Shanghai",
    "country": "China",
    "venue": "Shanghai New International Expo Centre",
    "start_date": "2026-04-21",
    "end_date": "2026-04-23",
    "frequency": "Annual",
    "industry": "Technology & Electronics",
    "region": "Asia",
    "tier": 2,
    "lat": 31.255,
    "lng": 121.4489
  },
  {
    "name": "Pharma & Biotech India",
    "website": "https://www.pharmabiotechindia.com/",
    "city": "New Delhi",
    "country": "India",
    "venue": "Bharat Mandapam",
    "start_date": "2026-03-24",
    "end_date": "2026-03-26",
    "frequency": "Annual",
    "industry": "Pharmaceutical",
    "region": "Asia",
    "tier": 2,
    "lat": 28.599,
    "lng": 77.2368
  },
  {
    "name": "Printpack India",
    "website": "https://www.printpackindia.in/",
    "city": "Greater Noida",
    "country": "India",
    "venue": "India Expo Centre",
    "start_date": "2027-02-01",
    "end_date": "2027-02-05",
    "frequency": "Biennial",
    "industry": "Packaging",
    "region": "Asia",
    "tier": 3,
    "lat": 28.4694,
    "lng": 77.5054
  },
  {
    "name": "ProPak China",
    "website": "https://www.propakchina.com/",
    "city": "Shanghai",
    "country": "China",
    "venue": "Shanghai New International Expo Centre",
    "start_date": "2026-06-24",
    "end_date": "2026-06-26",
    "frequency": "Annual",
    "industry": "Packaging",
    "region": "Asia",
    "tier": 2,
    "lat": 31.2174,
    "lng": 121.4808
  },
  {
    "name": "Propak Asia",
    "website": "https://www.propakasia.com/",
    "city": "Bangkok",
    "country": "Thailand",
    "venue": "Bangkok International Trade & Exhibition Centre",
    "start_date": "2026-06-10",
    "end_date": "2026-06-13",
    "frequency": "Annual",
    "industry": "Packaging",
    "region": "Asia",
    "tier": 2,
    "lat": 13.7409,
    "lng": 100.4664
  },
  {
    "name": "SEMICON China",
    "website": "https://www.semiconchina.org/",
    "city": "Shanghai",
    "country": "China",
    "venue": "Shanghai New International Expo Centre",
    "start_date": "2026-03-18",
    "end_date": "2026-03-20",
    "frequency": "Annual",
    "industry": "Technology & Electronics",
    "region": "Asia",
    "tier": 2,
    "lat": 31.2424,
    "lng": 121.4773
  },
  {
    "name": "SIAL China",
    "website": "https://www.sialchina.com/",
    "city": "Shanghai",
    "country": "China",
    "venue": "Shanghai New International Expo Centre",
    "start_date": "2026-05-18",
    "end_date": "2026-05-20",
    "frequency": "Annual",
    "industry": "Food & Beverage",
    "region": "Asia",
    "tier": 2,
    "lat": 31.1978,
    "lng": 121.4414
  },
  {
    "name": "Seoul Motor Show",
    "website": "https://www.seoulmotor.com/",
    "city": "Seoul",
    "country": "South Korea",
    "venue": "COEX Convention Center",
    "start_date": "2027-03-28",
    "end_date": "2027-04-06",
    "frequency": "Biennial",
    "industry": "Automotive",
    "region": "Asia",
    "tier": 2,
    "lat": 37.5556,
    "lng": 126.9436
  },
  {
    "name": "Sibos",
    "website": "https://www.sibos.com/",
    "city": "Singapore",
    "country": "Singapore",
    "venue": "Marina Bay Sands Expo",
    "start_date": "2026-10-12",
    "end_date": "2026-10-15",
    "frequency": "Annual",
    "industry": "Finance & Fintech",
    "region": "Asia",
    "tier": 1,
    "lat": 1.3758,
    "lng": 103.8487
  },
  {
    "name": "Singapore Airshow",
    "website": "https://www.singaporeairshow.com/",
    "city": "Singapore",
    "country": "Singapore",
    "venue": "Marina Bay Sands Expo",
    "start_date": "2026-02-17",
    "end_date": "2026-02-21",
    "frequency": "Biennial",
    "industry": "Aerospace & Defense",
    "region": "Asia",
    "tier": 2,
    "lat": 1.3844,
    "lng": 103.8234
  },
  {
    "name": "Singapore FinTech Festival",
    "website": "https://www.fintechfestival.sg/",
    "city": "Singapore",
    "country": "Singapore",
    "venue": "Marina Bay Sands Expo",
    "start_date": "2026-11-11",
    "end_date": "2026-11-13",
    "frequency": "Annual",
    "industry": "Finance & Fintech",
    "region": "Asia",
    "tier": 1,
    "lat": 1.318,
    "lng": 103.7969
  },
  {
    "name": "TAIPEI AMPA",
    "website": "https://www.taipeiampa.com.tw/",
    "city": "Taipei",
    "country": "Taiwan",
    "venue": "Taipei World Trade Center",
    "start_date": "2026-04-22",
    "end_date": "2026-04-25",
    "frequency": "Annual",
    "industry": "Automotive",
    "region": "Asia",
    "tier": 2,
    "lat": 25.0236,
    "lng": 121.5801
  },
  {
    "name": "productronica China",
    "website": "https://www.productronicachina.com/",
    "city": "Shanghai",
    "country": "China",
    "venue": "Shanghai New International Expo Centre",
    "start_date": "2026-03-18",
    "end_date": "2026-03-20",
    "frequency": "Annual",
    "industry": "Technology & Electronics",
    "region": "Asia",
    "tier": 2,
    "lat": 31.1982,
    "lng": 121.4682
  },
  {
    "name": "AMB",
    "website": "https://www.messe-stuttgart.de/amb/en/",
    "city": "Stuttgart",
    "country": "Germany",
    "venue": "Messe Stuttgart",
    "start_date": "2026-09-15",
    "end_date": "2026-09-19",
    "frequency": "Biennial",
    "industry": "Manufacturing & Industrial",
    "region": "Europe",
    "tier": 2,
    "lat": 48.7697,
    "lng": 9.1803
  },
  {
    "name": "Agritechnica",
    "website": "https://www.agritechnica.com/",
    "city": "Hanover",
    "country": "Germany",
    "venue": "Deutsche Messe Hannover",
    "start_date": "2027-11-07",
    "end_date": "2027-11-13",
    "frequency": "Biennial",
    "industry": "Agriculture",
    "region": "Europe",
    "tier": 2,
    "lat": 52.3598,
    "lng": 9.7431
  },
  {
    "name": "Alimentaria",
    "website": "https://www.alimentaria.com/",
    "city": "Barcelona",
    "country": "Spain",
    "venue": "Fira Barcelona Gran Via",
    "start_date": "2026-03-30",
    "end_date": "2026-04-02",
    "frequency": "Biennial",
    "industry": "Food & Beverage",
    "region": "Europe",
    "tier": 2,
    "lat": 41.41,
    "lng": 2.1547
  },
  {
    "name": "Ambiente",
    "website": "https://ambiente.messefrankfurt.com/",
    "city": "Frankfurt",
    "country": "Germany",
    "venue": "Messe Frankfurt",
    "start_date": "2027-01-29",
    "end_date": "2027-02-02",
    "frequency": "Annual",
    "industry": "Consumer Goods",
    "region": "Europe",
    "tier": 2,
    "lat": 50.1073,
    "lng": 8.6759
  },
  {
    "name": "Anuga",
    "website": "https://www.anuga.com/",
    "city": "Cologne",
    "country": "Germany",
    "venue": "Koelnmesse",
    "start_date": "2027-10-09",
    "end_date": "2027-10-13",
    "frequency": "Biennial",
    "industry": "Food & Beverage",
    "region": "Europe",
    "tier": 1,
    "lat": 50.9578,
    "lng": 6.9659
  },
  {
    "name": "Apparel Sourcing Paris",
    "website": "https://apparel-sourcing-paris.fr.messefrankfurt.com/",
    "city": "Paris",
    "country": "France",
    "venue": "Paris Expo Porte de Versailles",
    "start_date": "2026-07-01",
    "end_date": "2026-07-03",
    "frequency": "Biannual",
    "industry": "Fashion & Textiles",
    "region": "Europe",
    "tier": 2,
    "lat": 48.8239,
    "lng": 2.316
  },
  {
    "name": "Automatica",
    "website": "https://automatica-munich.com/en/",
    "city": "Munich",
    "country": "Germany",
    "venue": "Messe München",
    "start_date": "2026-06-24",
    "end_date": "2026-06-27",
    "frequency": "Biennial",
    "industry": "Manufacturing & Industrial",
    "region": "Europe",
    "tier": 2,
    "lat": 48.1082,
    "lng": 11.5724
  },
  {
    "name": "Automechanika",
    "website": "https://automechanika.messefrankfurt.com/",
    "city": "Frankfurt",
    "country": "Germany",
    "venue": "Messe Frankfurt",
    "start_date": "2026-09-08",
    "end_date": "2026-09-12",
    "frequency": "Biennial",
    "industry": "Automotive",
    "region": "Europe",
    "tier": 1,
    "lat": 50.0797,
    "lng": 8.6923
  },
  {
    "name": "BETT",
    "website": "https://www.bettshow.com/",
    "city": "London",
    "country": "United Kingdom",
    "venue": "ExCeL London",
    "start_date": "2027-01-21",
    "end_date": "2027-01-24",
    "frequency": "Annual",
    "industry": "Education",
    "region": "Europe",
    "tier": 2,
    "lat": 51.515,
    "lng": -0.1138
  },
  {
    "name": "CPHI Europe",
    "website": "https://www.cphi.com/",
    "city": "Milan",
    "country": "Italy",
    "venue": "Fiera Milano",
    "start_date": "2026-10-06",
    "end_date": "2026-10-08",
    "frequency": "Annual",
    "industry": "Pharmaceutical",
    "region": "Europe",
    "tier": 2,
    "lat": 45.4466,
    "lng": 9.2086
  },
  {
    "name": "Cannes Lions",
    "website": "https://www.canneslions.com/",
    "city": "Cannes",
    "country": "France",
    "venue": "Palais des Festivals",
    "start_date": "2026-06-15",
    "end_date": "2026-06-20",
    "frequency": "Annual",
    "industry": "Marketing & Advertising",
    "region": "Europe",
    "tier": 1,
    "lat": 43.5752,
    "lng": 7.0481
  },
  {
    "name": "Cosmoprof Worldwide Bologna",
    "website": "https://www.cosmoprof.com/",
    "city": "Bologna",
    "country": "Italy",
    "venue": "BolognaFiere",
    "start_date": "2026-03-26",
    "end_date": "2026-03-29",
    "frequency": "Annual",
    "industry": "Beauty & Personal Care",
    "region": "Europe",
    "tier": 2,
    "lat": 44.4989,
    "lng": 11.3066
  },
  {
    "name": "DMEXCO",
    "website": "https://dmexco.com/",
    "city": "Cologne",
    "country": "Germany",
    "venue": "Koelnmesse",
    "start_date": "2026-09-23",
    "end_date": "2026-09-24",
    "frequency": "Annual",
    "industry": "Digital Marketing",
    "region": "Europe",
    "tier": 2,
    "lat": 50.9612,
    "lng": 6.9233
  },
  {
    "name": "Digital Health World Congress",
    "website": "https://www.digitalhealthcongress.com/",
    "city": "London",
    "country": "United Kingdom",
    "venue": "ExCeL London",
    "start_date": "2026-06-09",
    "end_date": "2026-06-10",
    "frequency": "Annual",
    "industry": "Healthcare & Medical",
    "region": "Europe",
    "tier": 2,
    "lat": 51.4982,
    "lng": -0.1217
  },
  {
    "name": "EMO Hannover",
    "website": "https://emo-hannover.de/en",
    "city": "Hanover",
    "country": "Germany",
    "venue": "Deutsche Messe Hannover",
    "start_date": "2027-09-18",
    "end_date": "2027-09-23",
    "frequency": "Biennial",
    "industry": "Manufacturing & Industrial",
    "region": "Europe",
    "tier": 2,
    "lat": 52.3877,
    "lng": 9.7407
  },
  {
    "name": "EXPO REAL",
    "website": "https://www.exporeal.net/",
    "city": "Munich",
    "country": "Germany",
    "venue": "Messe München",
    "start_date": "2026-10-05",
    "end_date": "2026-10-07",
    "frequency": "Annual",
    "industry": "Real Estate",
    "region": "Europe",
    "tier": 2,
    "lat": 48.1254,
    "lng": 11.6208
  },
  {
    "name": "Electronica",
    "website": "https://www.electronica.de/en/",
    "city": "Munich",
    "country": "Germany",
    "venue": "Messe München",
    "start_date": "2026-11-10",
    "end_date": "2026-11-13",
    "frequency": "Biennial",
    "industry": "Technology & Electronics",
    "region": "Europe",
    "tier": 2,
    "lat": 48.1127,
    "lng": 11.5891
  },
  {
    "name": "Embedded World",
    "website": "https://www.embedded-world.de/en",
    "city": "Nuremberg",
    "country": "Germany",
    "venue": "NürnbergMesse",
    "start_date": "2026-03-10",
    "end_date": "2026-03-12",
    "frequency": "Annual",
    "industry": "Technology & Electronics",
    "region": "Europe",
    "tier": 2,
    "lat": 49.4142,
    "lng": 11.0526
  },
  {
    "name": "EuroBLECH",
    "website": "https://www.euroblech.com/en/",
    "city": "Hanover",
    "country": "Germany",
    "venue": "Deutsche Messe Hannover",
    "start_date": "2026-10-20",
    "end_date": "2026-10-23",
    "frequency": "Biennial",
    "industry": "Manufacturing & Industrial",
    "region": "Europe",
    "tier": 2,
    "lat": 52.4151,
    "lng": 9.7432
  },
  {
    "name": "EuroCIS",
    "website": "https://www.eurocis-tradefair.com/",
    "city": "Dusseldorf",
    "country": "Germany",
    "venue": "Messe Düsseldorf",
    "start_date": "2026-02-17",
    "end_date": "2026-02-19",
    "frequency": "Biennial",
    "industry": "Retail",
    "region": "Europe",
    "tier": 2,
    "lat": 51.2293,
    "lng": 6.7858
  },
  {
    "name": "EuroShop",
    "website": "https://www.euroshop-tradefair.com/",
    "city": "Dusseldorf",
    "country": "Germany",
    "venue": "Messe Düsseldorf",
    "start_date": "2026-02-28",
    "end_date": "2026-03-04",
    "frequency": "Triennial",
    "industry": "Retail",
    "region": "Europe",
    "tier": 1,
    "lat": 51.1941,
    "lng": 6.8106
  },
  {
    "name": "Eurosatory",
    "website": "https://www.eurosatory.com/",
    "city": "Paris",
    "country": "France",
    "venue": "Paris Expo Porte de Versailles",
    "start_date": "2026-06-16",
    "end_date": "2026-06-20",
    "frequency": "Biennial",
    "industry": "Defense",
    "region": "Europe",
    "tier": 1,
    "lat": 48.8942,
    "lng": 2.3265
  },
  {
    "name": "FIBO",
    "website": "https://www.fibo.com/",
    "city": "Cologne",
    "country": "Germany",
    "venue": "Koelnmesse",
    "start_date": "2026-04-16",
    "end_date": "2026-04-19",
    "frequency": "Annual",
    "industry": "Fitness & Wellness",
    "region": "Europe",
    "tier": 3,
    "lat": 50.9333,
    "lng": 6.9243
  },
  {
    "name": "Farnborough International Airshow",
    "website": "https://www.farnboroughairshow.com/",
    "city": "Farnborough",
    "country": "United Kingdom",
    "venue": "Farnborough International Exhibition Centre",
    "start_date": "2026-07-20",
    "end_date": "2026-07-24",
    "frequency": "Biennial",
    "industry": "Aerospace & Defense",
    "region": "Europe",
    "tier": 1,
    "lat": 51.246,
    "lng": -0.8394
  },
  {
    "name": "Geneva International Motor Show",
    "website": "https://www.gims.swiss/",
    "city": "Geneva",
    "country": "Switzerland",
    "venue": "Palexpo Geneva",
    "start_date": "2026-02-26",
    "end_date": "2026-03-08",
    "frequency": "Annual",
    "industry": "Automotive",
    "region": "Europe",
    "tier": 2,
    "lat": 46.228,
    "lng": 6.1214
  },
  {
    "name": "Hannover Messe",
    "website": "https://www.hannovermesse.de/",
    "city": "Hanover",
    "country": "Germany",
    "venue": "Deutsche Messe Hannover",
    "start_date": "2026-04-20",
    "end_date": "2026-04-24",
    "frequency": "Annual",
    "industry": "Manufacturing & Industrial",
    "region": "Europe",
    "tier": 1,
    "lat": 52.3655,
    "lng": 9.7088
  },
  {
    "name": "HundrED Summit",
    "website": "https://hundred.org/summit/",
    "city": "Helsinki",
    "country": "Finland",
    "venue": "Messukeskus Helsinki",
    "start_date": "2026-11-10",
    "end_date": "2026-11-12",
    "frequency": "Annual",
    "industry": "Education",
    "region": "Europe",
    "tier": 3,
    "lat": 60.1487,
    "lng": 24.908
  },
  {
    "name": "IAA Mobility",
    "website": "https://www.iaa-mobility.com/",
    "city": "Munich",
    "country": "Germany",
    "venue": "Messe München",
    "start_date": "2027-09-07",
    "end_date": "2027-09-12",
    "frequency": "Biennial",
    "industry": "Automotive",
    "region": "Europe",
    "tier": 1,
    "lat": 48.1585,
    "lng": 11.5758
  },
  {
    "name": "IAA Transportation",
    "website": "https://www.iaa.de/iaa-transportation/",
    "city": "Hanover",
    "country": "Germany",
    "venue": "Deutsche Messe Hannover",
    "start_date": "2026-09-22",
    "end_date": "2026-10-02",
    "frequency": "Biennial",
    "industry": "Automotive",
    "region": "Europe",
    "tier": 2,
    "lat": 52.3935,
    "lng": 9.716
  },
  {
    "name": "IBC Show",
    "website": "https://show.ibc.org/",
    "city": "Amsterdam",
    "country": "Netherlands",
    "venue": "RAI Amsterdam",
    "start_date": "2026-09-11",
    "end_date": "2026-09-15",
    "frequency": "Annual",
    "industry": "Technology & Electronics",
    "region": "Europe",
    "tier": 1,
    "lat": 52.3494,
    "lng": 4.9125
  },
  {
    "name": "IBTM World",
    "website": "https://www.ibtmworld.com/",
    "city": "Barcelona",
    "country": "Spain",
    "venue": "Fira Barcelona Gran Via",
    "start_date": "2026-11-30",
    "end_date": "2026-12-02",
    "frequency": "Annual",
    "industry": "Travel & Tourism",
    "region": "Europe",
    "tier": 2,
    "lat": 41.4225,
    "lng": 2.1557
  },
  {
    "name": "IFA Berlin",
    "website": "https://www.ifa-berlin.com/",
    "city": "Berlin",
    "country": "Germany",
    "venue": "Messe Berlin",
    "start_date": "2026-09-04",
    "end_date": "2026-09-08",
    "frequency": "Annual",
    "industry": "Technology & Electronics",
    "region": "Europe",
    "tier": 2,
    "lat": 52.5514,
    "lng": 13.372
  },
  {
    "name": "IFSEC International",
    "website": "https://www.ifsec.co.uk/",
    "city": "London",
    "country": "United Kingdom",
    "venue": "ExCeL London",
    "start_date": "2026-05-20",
    "end_date": "2026-05-22",
    "frequency": "Annual",
    "industry": "Cybersecurity",
    "region": "Europe",
    "tier": 2,
    "lat": 51.5425,
    "lng": -0.1586
  },
  {
    "name": "IMEX Frankfurt",
    "website": "https://www.imexfrankfurt.com/",
    "city": "Frankfurt",
    "country": "Germany",
    "venue": "Messe Frankfurt",
    "start_date": "2026-05-19",
    "end_date": "2026-05-21",
    "frequency": "Annual",
    "industry": "Travel & Tourism",
    "region": "Europe",
    "tier": 2,
    "lat": 50.1222,
    "lng": 8.6741
  },
  {
    "name": "INTERMAT",
    "website": "https://www.intermatconstruction.com/",
    "city": "Paris",
    "country": "France",
    "venue": "Paris Expo Porte de Versailles",
    "start_date": "2027-04-21",
    "end_date": "2027-04-26",
    "frequency": "Triennial",
    "industry": "Construction & Building Materials",
    "region": "Europe",
    "tier": 1,
    "lat": 48.8815,
    "lng": 2.3827
  },
  {
    "name": "ISE (Integrated Systems Europe)",
    "website": "https://www.iseurope.org/",
    "city": "Barcelona",
    "country": "Spain",
    "venue": "Fira Barcelona Gran Via",
    "start_date": "2026-02-03",
    "end_date": "2026-02-06",
    "frequency": "Annual",
    "industry": "Technology & Electronics",
    "region": "Europe",
    "tier": 2,
    "lat": 41.3603,
    "lng": 2.1693
  },
  {
    "name": "ITB Berlin",
    "website": "https://www.itb.com/",
    "city": "Berlin",
    "country": "Germany",
    "venue": "Messe Berlin",
    "start_date": "2026-03-03",
    "end_date": "2026-03-05",
    "frequency": "Annual",
    "industry": "Travel & Tourism",
    "region": "Europe",
    "tier": 2,
    "lat": 52.4961,
    "lng": 13.3899
  },
  {
    "name": "Infosecurity Europe",
    "website": "https://www.infosecurityeurope.com/",
    "city": "London",
    "country": "United Kingdom",
    "venue": "ExCeL London",
    "start_date": "2026-06-02",
    "end_date": "2026-06-04",
    "frequency": "Annual",
    "industry": "Cybersecurity",
    "region": "Europe",
    "tier": 2,
    "lat": 51.4857,
    "lng": -0.1652
  },
  {
    "name": "Intercharm",
    "website": "https://www.intercharm.net/",
    "city": "Moscow",
    "country": "Russia",
    "venue": "Crocus Expo",
    "start_date": "2026-10-21",
    "end_date": "2026-10-24",
    "frequency": "Annual",
    "industry": "Beauty & Personal Care",
    "region": "Europe",
    "tier": 3,
    "lat": 55.7284,
    "lng": 37.6542
  },
  {
    "name": "Interpack",
    "website": "https://www.interpack.com/",
    "city": "Dusseldorf",
    "country": "Germany",
    "venue": "Messe Düsseldorf",
    "start_date": "2026-05-07",
    "end_date": "2026-05-13",
    "frequency": "Triennial",
    "industry": "Packaging",
    "region": "Europe",
    "tier": 1,
    "lat": 51.2491,
    "lng": 6.7983
  },
  {
    "name": "Intersolar Europe",
    "website": "https://www.intersolar.de/",
    "city": "Munich",
    "country": "Germany",
    "venue": "Messe München",
    "start_date": "2026-06-23",
    "end_date": "2026-06-25",
    "frequency": "Annual",
    "industry": "Energy & Environment",
    "region": "Europe",
    "tier": 2,
    "lat": 48.1203,
    "lng": 11.5634
  },
  {
    "name": "Ipack-Ima",
    "website": "https://www.ipackima.com/en/",
    "city": "Milan",
    "country": "Italy",
    "venue": "Fiera Milano",
    "start_date": "2026-05-26",
    "end_date": "2026-05-29",
    "frequency": "Triennial",
    "industry": "Packaging",
    "region": "Europe",
    "tier": 2,
    "lat": 45.4351,
    "lng": 9.1639
  },
  {
    "name": "Labelexpo Europe",
    "website": "https://www.labelexpo-europe.com/",
    "city": "Barcelona",
    "country": "Spain",
    "venue": "Fira Barcelona Gran Via",
    "start_date": "2027-09-16",
    "end_date": "2027-09-19",
    "frequency": "Biennial",
    "industry": "Packaging",
    "region": "Europe",
    "tier": 2,
    "lat": 41.4247,
    "lng": 2.1854
  },
  {
    "name": "Ligna",
    "website": "https://www.ligna.de/",
    "city": "Hanover",
    "country": "Germany",
    "venue": "Deutsche Messe Hannover",
    "start_date": "2027-05-26",
    "end_date": "2027-05-30",
    "frequency": "Biennial",
    "industry": "Manufacturing & Industrial",
    "region": "Europe",
    "tier": 2,
    "lat": 52.4057,
    "lng": 9.7607
  },
  {
    "name": "LogiMAT",
    "website": "https://www.logimat-messe.de/en",
    "city": "Stuttgart",
    "country": "Germany",
    "venue": "Messe Stuttgart",
    "start_date": "2026-03-24",
    "end_date": "2026-03-26",
    "frequency": "Annual",
    "industry": "Logistics & Supply Chain",
    "region": "Europe",
    "tier": 2,
    "lat": 48.8046,
    "lng": 9.1486
  },
  {
    "name": "London Tech Week",
    "website": "https://londontechweek.com/",
    "city": "London",
    "country": "United Kingdom",
    "venue": "ExCeL London",
    "start_date": "2026-06-08",
    "end_date": "2026-06-12",
    "frequency": "Annual",
    "industry": "Technology & Electronics",
    "region": "Europe",
    "tier": 2,
    "lat": 51.5375,
    "lng": -0.1426
  },
  {
    "name": "MAPIC",
    "website": "https://www.mapic.com/",
    "city": "Cannes",
    "country": "France",
    "venue": "Palais des Festivals",
    "start_date": "2026-11-17",
    "end_date": "2026-11-19",
    "frequency": "Annual",
    "industry": "Real Estate",
    "region": "Europe",
    "tier": 2,
    "lat": 43.5215,
    "lng": 7.0122
  },
  {
    "name": "MEDICA",
    "website": "https://www.medica-tradefair.com/",
    "city": "Dusseldorf",
    "country": "Germany",
    "venue": "Messe Düsseldorf",
    "start_date": "2026-11-16",
    "end_date": "2026-11-19",
    "frequency": "Annual",
    "industry": "Healthcare & Medical",
    "region": "Europe",
    "tier": 1,
    "lat": 51.2481,
    "lng": 6.7857
  },
  {
    "name": "MIPIM",
    "website": "https://www.mipim.com/",
    "city": "Cannes",
    "country": "France",
    "venue": "Palais des Festivals",
    "start_date": "2026-03-09",
    "end_date": "2026-03-13",
    "frequency": "Annual",
    "industry": "Real Estate",
    "region": "Europe",
    "tier": 2,
    "lat": 43.5483,
    "lng": 7.0463
  },
  {
    "name": "MWC Barcelona",
    "website": "https://www.mwcbarcelona.com/",
    "city": "Barcelona",
    "country": "Spain",
    "venue": "Fira Barcelona Gran Via",
    "start_date": "2026-03-02",
    "end_date": "2026-03-05",
    "frequency": "Annual",
    "industry": "Technology & Electronics",
    "region": "Europe",
    "tier": 1,
    "lat": 41.3671,
    "lng": 2.1513
  },
  {
    "name": "Maison&Objet",
    "website": "https://www.maison-objet.com/",
    "city": "Paris",
    "country": "France",
    "venue": "Paris Expo Porte de Versailles",
    "start_date": "2026-09-10",
    "end_date": "2026-09-14",
    "frequency": "Biannual",
    "industry": "Consumer Goods",
    "region": "Europe",
    "tier": 2,
    "lat": 48.8366,
    "lng": 2.3861
  },
  {
    "name": "Milano Unica",
    "website": "https://www.milanounica.it/en",
    "city": "Milan",
    "country": "Italy",
    "venue": "Fiera Milano",
    "start_date": "2026-02-03",
    "end_date": "2026-02-05",
    "frequency": "Biannual",
    "industry": "Fashion & Textiles",
    "region": "Europe",
    "tier": 2,
    "lat": 45.4574,
    "lng": 9.1634
  },
  {
    "name": "Milipol Paris",
    "website": "https://www.milipol.com/",
    "city": "Paris",
    "country": "France",
    "venue": "Paris Expo Porte de Versailles",
    "start_date": "2027-11-17",
    "end_date": "2027-11-20",
    "frequency": "Biennial",
    "industry": "Defense",
    "region": "Europe",
    "tier": 2,
    "lat": 48.8936,
    "lng": 2.3334
  },
  {
    "name": "Money20/20 Europe",
    "website": "https://europe.money2020.com/",
    "city": "Amsterdam",
    "country": "Netherlands",
    "venue": "RAI Amsterdam",
    "start_date": "2026-06-02",
    "end_date": "2026-06-05",
    "frequency": "Annual",
    "industry": "Finance & Fintech",
    "region": "Europe",
    "tier": 1,
    "lat": 52.3334,
    "lng": 4.9008
  },
  {
    "name": "Paris Air Show",
    "website": "https://www.siae.fr/",
    "city": "Le Bourget",
    "country": "France",
    "venue": "Paris Le Bourget Airport",
    "start_date": "2027-06-16",
    "end_date": "2027-06-22",
    "frequency": "Biennial",
    "industry": "Aerospace & Defense",
    "region": "Europe",
    "tier": 1,
    "lat": 48.9593,
    "lng": 2.4341
  },
  {
    "name": "Paris Motor Show",
    "website": "https://www.mondial.auto/en/",
    "city": "Paris",
    "country": "France",
    "venue": "Paris Expo Porte de Versailles",
    "start_date": "2026-10-15",
    "end_date": "2026-10-25",
    "frequency": "Biennial",
    "industry": "Automotive",
    "region": "Europe",
    "tier": 2,
    "lat": 48.8185,
    "lng": 2.3277
  },
  {
    "name": "Premiere Vision Paris",
    "website": "https://www.premierevision.com/en",
    "city": "Paris",
    "country": "France",
    "venue": "Paris Expo Porte de Versailles",
    "start_date": "2026-02-10",
    "end_date": "2026-02-12",
    "frequency": "Biannual",
    "industry": "Fashion & Textiles",
    "region": "Europe",
    "tier": 2,
    "lat": 48.8634,
    "lng": 2.384
  },
  {
    "name": "SIAL Paris",
    "website": "https://www.sialparis.com/",
    "city": "Paris",
    "country": "France",
    "venue": "Paris Expo Porte de Versailles",
    "start_date": "2026-10-18",
    "end_date": "2026-10-22",
    "frequency": "Biennial",
    "industry": "Food & Beverage",
    "region": "Europe",
    "tier": 2,
    "lat": 48.8438,
    "lng": 2.3246
  },
  {
    "name": "SIMA",
    "website": "https://en.simaonline.com/",
    "city": "Paris",
    "country": "France",
    "venue": "Paris Expo Porte de Versailles",
    "start_date": "2026-11-15",
    "end_date": "2026-11-19",
    "frequency": "Biennial",
    "industry": "Agriculture",
    "region": "Europe",
    "tier": 2,
    "lat": 48.8653,
    "lng": 2.3244
  },
  {
    "name": "Seafood Expo Global",
    "website": "https://www.seafoodexpo.com/global/",
    "city": "Barcelona",
    "country": "Spain",
    "venue": "Fira Barcelona Gran Via",
    "start_date": "2026-04-21",
    "end_date": "2026-04-23",
    "frequency": "Annual",
    "industry": "Food & Beverage",
    "region": "Europe",
    "tier": 2,
    "lat": 41.4097,
    "lng": 2.1918
  },
  {
    "name": "Security Essen",
    "website": "https://www.security.de/",
    "city": "Essen",
    "country": "Germany",
    "venue": "Messe Essen",
    "start_date": "2026-09-22",
    "end_date": "2026-09-25",
    "frequency": "Biennial",
    "industry": "Cybersecurity",
    "region": "Europe",
    "tier": 2,
    "lat": 51.4941,
    "lng": 7.0145
  },
  {
    "name": "Shoptalk Europe",
    "website": "https://shoptalkeurope.com/",
    "city": "Barcelona",
    "country": "Spain",
    "venue": "Fira Barcelona Gran Via",
    "start_date": "2026-06-09",
    "end_date": "2026-06-11",
    "frequency": "Annual",
    "industry": "Retail",
    "region": "Europe",
    "tier": 2,
    "lat": 41.3975,
    "lng": 2.1651
  },
  {
    "name": "Spielwarenmesse",
    "website": "https://www.spielwarenmesse.de/",
    "city": "Nuremberg",
    "country": "Germany",
    "venue": "NürnbergMesse",
    "start_date": "2026-01-27",
    "end_date": "2026-01-31",
    "frequency": "Annual",
    "industry": "Consumer Goods",
    "region": "Europe",
    "tier": 2,
    "lat": 49.4459,
    "lng": 11.059
  },
  {
    "name": "Texworld Paris",
    "website": "https://texworld-paris.fr.messefrankfurt.com/",
    "city": "Paris",
    "country": "France",
    "venue": "Paris Expo Porte de Versailles",
    "start_date": "2026-07-01",
    "end_date": "2026-07-03",
    "frequency": "Biannual",
    "industry": "Fashion & Textiles",
    "region": "Europe",
    "tier": 2,
    "lat": 48.8378,
    "lng": 2.3319
  },
  {
    "name": "The Battery Show Europe",
    "website": "https://www.thebatteryshow.eu/",
    "city": "Stuttgart",
    "country": "Germany",
    "venue": "Messe Stuttgart",
    "start_date": "2026-06-09",
    "end_date": "2026-06-11",
    "frequency": "Annual",
    "industry": "Energy & Environment",
    "region": "Europe",
    "tier": 2,
    "lat": 48.7527,
    "lng": 9.2183
  },
  {
    "name": "Vivatech",
    "website": "https://vivatechnology.com/",
    "city": "Paris",
    "country": "France",
    "venue": "Paris Expo Porte de Versailles",
    "start_date": "2026-05-20",
    "end_date": "2026-05-23",
    "frequency": "Annual",
    "industry": "Technology & Electronics",
    "region": "Europe",
    "tier": 2,
    "lat": 48.8273,
    "lng": 2.3214
  },
  {
    "name": "WIN Istanbul",
    "website": "https://www.win-mf.com/",
    "city": "Istanbul",
    "country": "Turkey",
    "venue": "Istanbul Expo Center",
    "start_date": "2026-09-25",
    "end_date": "2026-09-28",
    "frequency": "Biennial",
    "industry": "Manufacturing & Industrial",
    "region": "Europe",
    "tier": 2,
    "lat": 40.9825,
    "lng": 28.9583
  },
  {
    "name": "WTM London",
    "website": "https://www.wtm.com/london/",
    "city": "London",
    "country": "United Kingdom",
    "venue": "ExCeL London",
    "start_date": "2026-11-03",
    "end_date": "2026-11-05",
    "frequency": "Annual",
    "industry": "Travel & Tourism",
    "region": "Europe",
    "tier": 2,
    "lat": 51.4995,
    "lng": -0.1631
  },
  {
    "name": "Web Summit",
    "website": "https://websummit.com/",
    "city": "Lisbon",
    "country": "Portugal",
    "venue": "Altice Arena",
    "start_date": "2026-11-09",
    "end_date": "2026-11-12",
    "frequency": "Annual",
    "industry": "Technology & Electronics",
    "region": "Europe",
    "tier": 2,
    "lat": 38.7212,
    "lng": -9.1622
  },
  {
    "name": "WindEnergy Hamburg",
    "website": "https://www.windenergyhamburg.com/",
    "city": "Hamburg",
    "country": "Germany",
    "venue": "Hamburg Messe",
    "start_date": "2026-09-22",
    "end_date": "2026-09-25",
    "frequency": "Biennial",
    "industry": "Energy & Environment",
    "region": "Europe",
    "tier": 2,
    "lat": 53.5544,
    "lng": 10.007
  },
  {
    "name": "bauma",
    "website": "https://bauma.de/",
    "city": "Munich",
    "country": "Germany",
    "venue": "Messe München",
    "start_date": "2028-04-03",
    "end_date": "2028-04-09",
    "frequency": "Triennial",
    "industry": "Construction & Building Materials",
    "region": "Europe",
    "tier": 1,
    "lat": 48.1574,
    "lng": 11.5844
  },
  {
    "name": "drupa",
    "website": "https://www.drupa.com/",
    "city": "Dusseldorf",
    "country": "Germany",
    "venue": "Messe Düsseldorf",
    "start_date": "2028-05-28",
    "end_date": "2028-06-07",
    "frequency": "Quadrennial",
    "industry": "Manufacturing & Industrial",
    "region": "Europe",
    "tier": 1,
    "lat": 51.2083,
    "lng": 6.8107
  },
  {
    "name": "transport logistic Munich",
    "website": "https://www.transport-logistic.de/",
    "city": "Munich",
    "country": "Germany",
    "venue": "Messe München",
    "start_date": "2027-06-08",
    "end_date": "2027-06-11",
    "frequency": "Biennial",
    "industry": "Logistics & Supply Chain",
    "region": "Europe",
    "tier": 1,
    "lat": 48.1069,
    "lng": 11.5522
  },
  {
    "name": "Bett Brasil",
    "website": "https://brasil.bettshow.com/",
    "city": "Sao Paulo",
    "country": "Brazil",
    "venue": "Expo Center Norte",
    "start_date": "2026-05-05",
    "end_date": "2026-05-08",
    "frequency": "Annual",
    "industry": "Education",
    "region": "Latin America",
    "tier": 3,
    "lat": -23.5106,
    "lng": -46.6064
  },
  {
    "name": "Expo Manufactura",
    "website": "https://www.expomanufactura.com.mx/",
    "city": "Bogota",
    "country": "Colombia",
    "venue": "Corferias",
    "start_date": "2026-02-03",
    "end_date": "2026-02-05",
    "frequency": "Annual",
    "industry": "Manufacturing & Industrial",
    "region": "Latin America",
    "tier": 3,
    "lat": 4.7318,
    "lng": -74.092
  },
  {
    "name": "Expoagro",
    "website": "https://www.expoagro.com.ar/",
    "city": "San Nicolas",
    "country": "Argentina",
    "venue": "Predio Ferial de San Nicolas",
    "start_date": "2026-03-10",
    "end_date": "2026-03-13",
    "frequency": "Annual",
    "industry": "Agriculture",
    "region": "Latin America",
    "tier": 3,
    "lat": -33.3551,
    "lng": -60.1824
  },
  {
    "name": "Expoalimentaria",
    "website": "https://expoalimentariaperu.com/",
    "city": "Lima",
    "country": "Peru",
    "venue": "Lima Convention Center",
    "start_date": "2026-09-24",
    "end_date": "2026-09-26",
    "frequency": "Annual",
    "industry": "Food & Beverage",
    "region": "Latin America",
    "tier": 3,
    "lat": -12.0484,
    "lng": -77.0388
  },
  {
    "name": "Expomin",
    "website": "https://www.expomin.cl/",
    "city": "Santiago",
    "country": "Chile",
    "venue": "Santiago Convention Center",
    "start_date": "2026-04-20",
    "end_date": "2026-04-24",
    "frequency": "Biennial",
    "industry": "Manufacturing & Industrial",
    "region": "Latin America",
    "tier": 2,
    "lat": 0.0031,
    "lng": 0.0176
  },
  {
    "name": "FIA Brasil",
    "website": "https://www.fiabrasil.com.br/",
    "city": "Sao Paulo",
    "country": "Brazil",
    "venue": "Expo Center Norte",
    "start_date": "2026-07-14",
    "end_date": "2026-07-17",
    "frequency": "Annual",
    "industry": "Automotive",
    "region": "Latin America",
    "tier": 3,
    "lat": -23.5692,
    "lng": -46.622
  },
  {
    "name": "FISPAL Food Service",
    "website": "https://www.fispalfoodservice.com.br/",
    "city": "Sao Paulo",
    "country": "Brazil",
    "venue": "Expo Center Norte",
    "start_date": "2026-06-02",
    "end_date": "2026-06-05",
    "frequency": "Biennial",
    "industry": "Food & Beverage",
    "region": "Latin America",
    "tier": 3,
    "lat": -23.5292,
    "lng": -46.663
  },
  {
    "name": "FISPAL Tecnologia",
    "website": "https://www.fispaltecnologia.com.br/",
    "city": "Sao Paulo",
    "country": "Brazil",
    "venue": "Expo Center Norte",
    "start_date": "2026-06-23",
    "end_date": "2026-06-26",
    "frequency": "Biennial",
    "industry": "Food & Beverage",
    "region": "Latin America",
    "tier": 3,
    "lat": -23.5202,
    "lng": -46.6068
  },
  {
    "name": "FoodTech Summit & Expo",
    "website": "https://foodtechsummit.mx/",
    "city": "Mexico City",
    "country": "Mexico",
    "venue": "Citibanamex Center",
    "start_date": "2026-06-03",
    "end_date": "2026-06-04",
    "frequency": "Annual",
    "industry": "Food & Beverage",
    "region": "Latin America",
    "tier": 2,
    "lat": 19.3927,
    "lng": -99.0992
  },
  {
    "name": "Hospitalar",
    "website": "https://www.hospitalar.com/en/",
    "city": "Sao Paulo",
    "country": "Brazil",
    "venue": "Expo Center Norte",
    "start_date": "2026-05-19",
    "end_date": "2026-05-22",
    "frequency": "Annual",
    "industry": "Healthcare & Medical",
    "region": "Latin America",
    "tier": 3,
    "lat": -23.5693,
    "lng": -46.6035
  },
  {
    "name": "ADIPEC",
    "website": "https://www.adipec.com/",
    "city": "Abu Dhabi",
    "country": "United Arab Emirates",
    "venue": "Abu Dhabi National Exhibition Centre",
    "start_date": "2026-11-09",
    "end_date": "2026-11-12",
    "frequency": "Annual",
    "industry": "Energy & Environment",
    "region": "Middle East & Africa",
    "tier": 1,
    "lat": 24.4869,
    "lng": 54.4069
  },
  {
    "name": "ADIPEC Offshore & Marine",
    "website": "https://www.adipec.com/offshore-marine/",
    "city": "Abu Dhabi",
    "country": "United Arab Emirates",
    "venue": "Abu Dhabi National Exhibition Centre",
    "start_date": "2026-11-04",
    "end_date": "2026-11-07",
    "frequency": "Annual",
    "industry": "Energy & Environment",
    "region": "Middle East & Africa",
    "tier": 2,
    "lat": 24.4386,
    "lng": 54.37
  },
  {
    "name": "Africa Health",
    "website": "https://www.africahealthexhibition.com/",
    "city": "Johannesburg",
    "country": "South Africa",
    "venue": "Expo Centre Nasrec",
    "start_date": "2026-10-14",
    "end_date": "2026-10-16",
    "frequency": "Annual",
    "industry": "Healthcare & Medical",
    "region": "Middle East & Africa",
    "tier": 2,
    "lat": -26.2386,
    "lng": 28.0681
  },
  {
    "name": "AfricaCom",
    "website": "https://tmt.knect365.com/africacom/",
    "city": "Cape Town",
    "country": "South Africa",
    "venue": "Cape Town International Convention Centre",
    "start_date": "2026-11-03",
    "end_date": "2026-11-05",
    "frequency": "Annual",
    "industry": "Technology & Electronics",
    "region": "Middle East & Africa",
    "tier": 2,
    "lat": -33.958,
    "lng": 18.423
  },
  {
    "name": "Arab Health",
    "website": "https://www.arabhealthonline.com/",
    "city": "Dubai",
    "country": "United Arab Emirates",
    "venue": "Dubai World Trade Centre",
    "start_date": "2026-01-26",
    "end_date": "2026-01-29",
    "frequency": "Annual",
    "industry": "Healthcare & Medical",
    "region": "Middle East & Africa",
    "tier": 2,
    "lat": 25.2337,
    "lng": 55.277
  },
  {
    "name": "Arab Pharma",
    "website": "https://www.arabpharmaexpo.com/",
    "city": "Dubai",
    "country": "United Arab Emirates",
    "venue": "Dubai World Trade Centre",
    "start_date": "2026-11-09",
    "end_date": "2026-11-11",
    "frequency": "Annual",
    "industry": "Pharmaceutical",
    "region": "Middle East & Africa",
    "tier": 2,
    "lat": 25.2082,
    "lng": 55.2906
  },
  {
    "name": "Arabian Travel Market",
    "website": "https://www.wtm.com/atm/en-gb.html",
    "city": "Dubai",
    "country": "United Arab Emirates",
    "venue": "Dubai World Trade Centre",
    "start_date": "2026-05-04",
    "end_date": "2026-05-07",
    "frequency": "Annual",
    "industry": "Travel & Tourism",
    "region": "Middle East & Africa",
    "tier": 2,
    "lat": 25.1987,
    "lng": 55.2477
  },
  {
    "name": "Beautyworld Middle East",
    "website": "https://www.beautyworldme.com/",
    "city": "Dubai",
    "country": "United Arab Emirates",
    "venue": "Dubai World Trade Centre",
    "start_date": "2026-05-26",
    "end_date": "2026-05-28",
    "frequency": "Annual",
    "industry": "Beauty & Personal Care",
    "region": "Middle East & Africa",
    "tier": 2,
    "lat": 25.205,
    "lng": 55.299
  },
  {
    "name": "Big 5 Global",
    "website": "https://www.thebig5.ae/",
    "city": "Dubai",
    "country": "United Arab Emirates",
    "venue": "Dubai World Trade Centre",
    "start_date": "2026-11-23",
    "end_date": "2026-11-26",
    "frequency": "Annual",
    "industry": "Construction & Building Materials",
    "region": "Middle East & Africa",
    "tier": 2,
    "lat": 25.2353,
    "lng": 55.3011
  },
  {
    "name": "Cityscape Global",
    "website": "https://www.cityscapeglobal.com/",
    "city": "Riyadh",
    "country": "Saudi Arabia",
    "venue": "Riyadh Front Exhibition and Conference Center",
    "start_date": "2026-09-07",
    "end_date": "2026-09-10",
    "frequency": "Annual",
    "industry": "Real Estate",
    "region": "Middle East & Africa",
    "tier": 2,
    "lat": 24.6899,
    "lng": 46.6926
  },
  {
    "name": "Dubai Airshow",
    "website": "https://www.dubaiairshow.aero/",
    "city": "Dubai",
    "country": "United Arab Emirates",
    "venue": "Dubai World Trade Centre",
    "start_date": "2027-11-17",
    "end_date": "2027-11-21",
    "frequency": "Biennial",
    "industry": "Aerospace & Defense",
    "region": "Middle East & Africa",
    "tier": 1,
    "lat": 25.199,
    "lng": 55.2316
  },
  {
    "name": "GITEX Africa",
    "website": "https://www.gitexafrica.com/",
    "city": "Marrakech",
    "country": "Morocco",
    "venue": "Marrakech Convention Centre",
    "start_date": "2026-04-07",
    "end_date": "2026-04-09",
    "frequency": "Annual",
    "industry": "Technology & Electronics",
    "region": "Middle East & Africa",
    "tier": 2,
    "lat": 31.634,
    "lng": -7.9636
  },
  {
    "name": "GITEX Global",
    "website": "https://www.gitex.com/",
    "city": "Dubai",
    "country": "United Arab Emirates",
    "venue": "Dubai World Trade Centre",
    "start_date": "2026-10-13",
    "end_date": "2026-10-17",
    "frequency": "Annual",
    "industry": "Technology & Electronics",
    "region": "Middle East & Africa",
    "tier": 1,
    "lat": 25.1986,
    "lng": 55.2332
  },
  {
    "name": "Gulfood",
    "website": "https://www.gulfood.com/",
    "city": "Dubai",
    "country": "United Arab Emirates",
    "venue": "Dubai World Trade Centre",
    "start_date": "2026-02-17",
    "end_date": "2026-02-21",
    "frequency": "Annual",
    "industry": "Food & Beverage",
    "region": "Middle East & Africa",
    "tier": 2,
    "lat": 25.2414,
    "lng": 55.2577
  },
  {
    "name": "Gulfood Manufacturing",
    "website": "https://www.gulfoodmanufacturing.com/",
    "city": "Dubai",
    "country": "United Arab Emirates",
    "venue": "Dubai World Trade Centre",
    "start_date": "2026-10-27",
    "end_date": "2026-10-29",
    "frequency": "Annual",
    "industry": "Food & Beverage",
    "region": "Middle East & Africa",
    "tier": 2,
    "lat": 25.1944,
    "lng": 55.2434
  },
  {
    "name": "IDEX",
    "website": "https://www.idexuae.ae/",
    "city": "Abu Dhabi",
    "country": "United Arab Emirates",
    "venue": "Abu Dhabi National Exhibition Centre",
    "start_date": "2027-02-21",
    "end_date": "2027-02-25",
    "frequency": "Biennial",
    "industry": "Defense",
    "region": "Middle East & Africa",
    "tier": 2,
    "lat": 24.4196,
    "lng": 54.3878
  },
  {
    "name": "IFAT Africa",
    "website": "https://ifat-africa.com/",
    "city": "Johannesburg",
    "country": "South Africa",
    "venue": "Expo Centre Nasrec",
    "start_date": "2026-07-07",
    "end_date": "2026-07-09",
    "frequency": "Biennial",
    "industry": "Energy & Environment",
    "region": "Middle East & Africa",
    "tier": 3,
    "lat": -26.1739,
    "lng": 28.0831
  },
  {
    "name": "MEDLAB Middle East",
    "website": "https://www.medlabme.com/",
    "city": "Dubai",
    "country": "United Arab Emirates",
    "venue": "Dubai World Trade Centre",
    "start_date": "2026-02-09",
    "end_date": "2026-02-12",
    "frequency": "Annual",
    "industry": "Healthcare & Medical",
    "region": "Middle East & Africa",
    "tier": 2,
    "lat": 25.2157,
    "lng": 55.26
  },
  {
    "name": "Propak East Africa",
    "website": "https://www.propakeastafrica.com/",
    "city": "Nairobi",
    "country": "Kenya",
    "venue": "Kenyatta International Convention Centre",
    "start_date": "2026-05-12",
    "end_date": "2026-05-14",
    "frequency": "Biennial",
    "industry": "Packaging",
    "region": "Middle East & Africa",
    "tier": 3,
    "lat": -1.3137,
    "lng": 36.7995
  },
  {
    "name": "The Big 5",
    "website": "https://www.thebig5.ae/",
    "city": "Dubai",
    "country": "United Arab Emirates",
    "venue": "Dubai World Trade Centre",
    "start_date": "2026-12-07",
    "end_date": "2026-12-10",
    "frequency": "Annual",
    "industry": "Construction & Building Materials",
    "region": "Middle East & Africa",
    "tier": 2,
    "lat": 25.2258,
    "lng": 55.274
  },
  {
    "name": "World Future Energy Summit",
    "website": "https://www.worldfutureenergysummit.com/",
    "city": "Abu Dhabi",
    "country": "United Arab Emirates",
    "venue": "Abu Dhabi National Exhibition Centre",
    "start_date": "2026-01-19",
    "end_date": "2026-01-22",
    "frequency": "Annual",
    "industry": "Energy & Environment",
    "region": "Middle East & Africa",
    "tier": 2,
    "lat": 24.4676,
    "lng": 54.3613
  },
  {
    "name": "transport logistic Middle East",
    "website": "https://www.transportlogistic.de/",
    "city": "Riyadh",
    "country": "Saudi Arabia",
    "venue": "Riyadh Front Exhibition and Conference Center",
    "start_date": "2026-09-28",
    "end_date": "2026-09-30",
    "frequency": "Annual",
    "industry": "Logistics & Supply Chain",
    "region": "Middle East & Africa",
    "tier": 2,
    "lat": 24.7502,
    "lng": 46.7149
  },
  {
    "name": "AHR Expo",
    "website": "https://www.ahrexpo.com/",
    "city": "Las Vegas",
    "country": "United States",
    "venue": "Las Vegas Convention Center",
    "start_date": "2026-01-26",
    "end_date": "2026-01-28",
    "frequency": "Annual",
    "industry": "Manufacturing & Industrial",
    "region": "North America",
    "tier": 2,
    "lat": 36.1745,
    "lng": -115.125
  },
  {
    "name": "AUSA Annual Meeting",
    "website": "https://www.ausa.org/annual-meeting",
    "city": "Washington",
    "country": "United States",
    "venue": "Walter E. Washington Convention Center",
    "start_date": "2026-10-12",
    "end_date": "2026-10-14",
    "frequency": "Annual",
    "industry": "Defense",
    "region": "North America",
    "tier": 2,
    "lat": 38.8855,
    "lng": -77.0045
  },
  {
    "name": "AWS re:Invent",
    "website": "https://reinvent.awsevents.com/",
    "city": "Las Vegas",
    "country": "United States",
    "venue": "Las Vegas Convention Center",
    "start_date": "2026-12-01",
    "end_date": "2026-12-05",
    "frequency": "Annual",
    "industry": "Technology & Electronics",
    "region": "North America",
    "tier": 1,
    "lat": 36.1966,
    "lng": -115.1235
  },
  {
    "name": "Advertising Week New York",
    "website": "https://advertisingweek.com/new-york/",
    "city": "New York",
    "country": "United States",
    "venue": "Javits Center",
    "start_date": "2026-10-05",
    "end_date": "2026-10-08",
    "frequency": "Annual",
    "industry": "Marketing & Advertising",
    "region": "North America",
    "tier": 2,
    "lat": 40.7053,
    "lng": -73.9963
  },
  {
    "name": "BIO International Convention",
    "website": "https://www.bio.org/events/bio-international-convention",
    "city": "Boston",
    "country": "United States",
    "venue": "Boston Convention and Exhibition Center",
    "start_date": "2026-06-08",
    "end_date": "2026-06-11",
    "frequency": "Annual",
    "industry": "Healthcare & Medical",
    "region": "North America",
    "tier": 2,
    "lat": 42.3265,
    "lng": -71.0803
  },
  {
    "name": "Black Hat USA",
    "website": "https://www.blackhat.com/us-26/",
    "city": "Las Vegas",
    "country": "United States",
    "venue": "Las Vegas Convention Center",
    "start_date": "2026-08-01",
    "end_date": "2026-08-06",
    "frequency": "Annual",
    "industry": "Cybersecurity",
    "region": "North America",
    "tier": 2,
    "lat": 36.1806,
    "lng": -115.1587
  },
  {
    "name": "CERAWeek",
    "website": "https://ceraweek.com/",
    "city": "Houston",
    "country": "United States",
    "venue": "NRG Center",
    "start_date": "2026-03-09",
    "end_date": "2026-03-13",
    "frequency": "Annual",
    "industry": "Energy & Environment",
    "region": "North America",
    "tier": 1,
    "lat": 29.7543,
    "lng": -95.3877
  },
  {
    "name": "CES",
    "website": "https://www.ces.tech/",
    "city": "Las Vegas",
    "country": "United States",
    "venue": "Las Vegas Convention Center",
    "start_date": "2026-01-06",
    "end_date": "2026-01-09",
    "frequency": "Annual",
    "industry": "Technology & Electronics",
    "region": "North America",
    "tier": 1,
    "lat": 36.1811,
    "lng": -115.1778
  },
  {
    "name": "CPHI North America",
    "website": "https://www.cphinorthamerica.com/",
    "city": "Philadelphia",
    "country": "United States",
    "venue": "Pennsylvania Convention Center",
    "start_date": "2026-05-05",
    "end_date": "2026-05-07",
    "frequency": "Annual",
    "industry": "Pharmaceutical",
    "region": "North America",
    "tier": 2,
    "lat": 39.925,
    "lng": -75.1815
  },
  {
    "name": "Collision Conference",
    "website": "https://collisionconf.com/",
    "city": "Toronto",
    "country": "Canada",
    "venue": "Metro Toronto Convention Centre",
    "start_date": "2026-06-23",
    "end_date": "2026-06-25",
    "frequency": "Annual",
    "industry": "Technology & Electronics",
    "region": "North America",
    "tier": 2,
    "lat": 43.6455,
    "lng": -79.4072
  },
  {
    "name": "ConExpo-Con/AGG",
    "website": "https://www.conexpoconagg.com/",
    "city": "Las Vegas",
    "country": "United States",
    "venue": "Las Vegas Convention Center",
    "start_date": "2026-03-03",
    "end_date": "2026-03-07",
    "frequency": "Triennial",
    "industry": "Construction & Building Materials",
    "region": "North America",
    "tier": 1,
    "lat": 36.1511,
    "lng": -115.1051
  },
  {
    "name": "Cosmoprof North America",
    "website": "https://www.cosmoprofnorthamerica.com/",
    "city": "Las Vegas",
    "country": "United States",
    "venue": "Las Vegas Convention Center",
    "start_date": "2026-07-13",
    "end_date": "2026-07-15",
    "frequency": "Annual",
    "industry": "Beauty & Personal Care",
    "region": "North America",
    "tier": 2,
    "lat": 36.1562,
    "lng": -115.1107
  },
  {
    "name": "Detroit Auto Show",
    "website": "https://www.naias.com/",
    "city": "Detroit",
    "country": "United States",
    "venue": "Huntington Place",
    "start_date": "2026-01-14",
    "end_date": "2026-01-25",
    "frequency": "Annual",
    "industry": "Automotive",
    "region": "North America",
    "tier": 2,
    "lat": 42.3711,
    "lng": -83.0435
  },
  {
    "name": "FABTECH",
    "website": "https://www.fabtechexpo.com/",
    "city": "Chicago",
    "country": "United States",
    "venue": "McCormick Place",
    "start_date": "2026-11-09",
    "end_date": "2026-11-12",
    "frequency": "Annual",
    "industry": "Manufacturing & Industrial",
    "region": "North America",
    "tier": 2,
    "lat": 41.8518,
    "lng": -87.6115
  },
  {
    "name": "FIME",
    "website": "https://www.fime.com/",
    "city": "Miami",
    "country": "United States",
    "venue": "Miami Beach Convention Center",
    "start_date": "2026-06-24",
    "end_date": "2026-06-26",
    "frequency": "Annual",
    "industry": "Healthcare & Medical",
    "region": "North America",
    "tier": 2,
    "lat": 25.7298,
    "lng": -80.2096
  },
  {
    "name": "Fancy Food Show",
    "website": "https://www.specialtyfood.com/fancy-food-show/",
    "city": "New York",
    "country": "United States",
    "venue": "Javits Center",
    "start_date": "2026-06-28",
    "end_date": "2026-06-30",
    "frequency": "Annual",
    "industry": "Food & Beverage",
    "region": "North America",
    "tier": 2,
    "lat": 40.7157,
    "lng": -73.9682
  },
  {
    "name": "Finovate Fall",
    "website": "https://finance.knect365.com/finovatefall/",
    "city": "New York",
    "country": "United States",
    "venue": "Javits Center",
    "start_date": "2026-09-08",
    "end_date": "2026-09-10",
    "frequency": "Annual",
    "industry": "Finance & Fintech",
    "region": "North America",
    "tier": 2,
    "lat": 40.6928,
    "lng": -74.0378
  },
  {
    "name": "Gastech",
    "website": "https://www.gastechevent.com/",
    "city": "Houston",
    "country": "United States",
    "venue": "NRG Center",
    "start_date": "2026-09-01",
    "end_date": "2026-09-04",
    "frequency": "Annual",
    "industry": "Energy & Environment",
    "region": "North America",
    "tier": 2,
    "lat": 29.7207,
    "lng": -95.3481
  },
  {
    "name": "GeekWire Summit",
    "website": "https://www.geekwire.com/summit/",
    "city": "Seattle",
    "country": "United States",
    "venue": "Washington State Convention Center",
    "start_date": "2026-10-06",
    "end_date": "2026-10-07",
    "frequency": "Annual",
    "industry": "Technology & Electronics",
    "region": "North America",
    "tier": 3,
    "lat": 47.6093,
    "lng": -122.297
  },
  {
    "name": "Google Cloud Next",
    "website": "https://cloud.withgoogle.com/next",
    "city": "Las Vegas",
    "country": "United States",
    "venue": "Las Vegas Convention Center",
    "start_date": "2026-04-09",
    "end_date": "2026-04-11",
    "frequency": "Annual",
    "industry": "Technology & Electronics",
    "region": "North America",
    "tier": 2,
    "lat": 36.1822,
    "lng": -115.1792
  },
  {
    "name": "GreenBuild International",
    "website": "https://greenbuildexpo.com/",
    "city": "Washington",
    "country": "United States",
    "venue": "Walter E. Washington Convention Center",
    "start_date": "2026-11-17",
    "end_date": "2026-11-19",
    "frequency": "Annual",
    "industry": "Construction & Building Materials",
    "region": "North America",
    "tier": 2,
    "lat": 38.8994,
    "lng": -77.0532
  },
  {
    "name": "HIMSS Global Health Conference",
    "website": "https://www.himss.org/global-health-conference",
    "city": "Orlando",
    "country": "United States",
    "venue": "Orange County Convention Center",
    "start_date": "2026-03-09",
    "end_date": "2026-03-12",
    "frequency": "Annual",
    "industry": "Healthcare & Medical",
    "region": "North America",
    "tier": 1,
    "lat": 28.5547,
    "lng": -81.4155
  },
  {
    "name": "HLTH",
    "website": "https://www.hlth.com/",
    "city": "Las Vegas",
    "country": "United States",
    "venue": "Las Vegas Convention Center",
    "start_date": "2026-10-18",
    "end_date": "2026-10-21",
    "frequency": "Annual",
    "industry": "Healthcare & Medical",
    "region": "North America",
    "tier": 2,
    "lat": 36.1988,
    "lng": -115.1599
  },
  {
    "name": "IMTS",
    "website": "https://www.imts.com/",
    "city": "Chicago",
    "country": "United States",
    "venue": "McCormick Place",
    "start_date": "2026-09-14",
    "end_date": "2026-09-19",
    "frequency": "Biennial",
    "industry": "Manufacturing & Industrial",
    "region": "North America",
    "tier": 1,
    "lat": 41.8595,
    "lng": -87.5949
  },
  {
    "name": "IPC APEX EXPO",
    "website": "https://www.ipcapexexpo.org/",
    "city": "Anaheim",
    "country": "United States",
    "venue": "Anaheim Convention Center",
    "start_date": "2026-03-17",
    "end_date": "2026-03-19",
    "frequency": "Annual",
    "industry": "Technology & Electronics",
    "region": "North America",
    "tier": 2,
    "lat": 33.8344,
    "lng": -117.8915
  },
  {
    "name": "ISTE Live",
    "website": "https://www.isteconference.org/",
    "city": "Denver",
    "country": "United States",
    "venue": "Colorado Convention Center",
    "start_date": "2026-06-28",
    "end_date": "2026-07-01",
    "frequency": "Annual",
    "industry": "Education",
    "region": "North America",
    "tier": 2,
    "lat": 39.7056,
    "lng": -105.0154
  },
  {
    "name": "InfoComm",
    "website": "https://www.infocommshow.org/",
    "city": "Las Vegas",
    "country": "United States",
    "venue": "Las Vegas Convention Center",
    "start_date": "2026-06-07",
    "end_date": "2026-06-13",
    "frequency": "Annual",
    "industry": "Technology & Electronics",
    "region": "North America",
    "tier": 2,
    "lat": 36.1873,
    "lng": -115.1635
  },
  {
    "name": "Intersolar North America",
    "website": "https://www.intersolar.us/",
    "city": "San Diego",
    "country": "United States",
    "venue": "San Diego Convention Center",
    "start_date": "2026-02-04",
    "end_date": "2026-02-06",
    "frequency": "Annual",
    "industry": "Energy & Environment",
    "region": "North America",
    "tier": 2,
    "lat": 32.7267,
    "lng": -117.1801
  },
  {
    "name": "MAGIC",
    "website": "https://www.magicfashionevents.com/",
    "city": "Las Vegas",
    "country": "United States",
    "venue": "Las Vegas Convention Center",
    "start_date": "2026-08-17",
    "end_date": "2026-08-19",
    "frequency": "Biannual",
    "industry": "Fashion & Textiles",
    "region": "North America",
    "tier": 2,
    "lat": 36.2031,
    "lng": -115.1431
  },
  {
    "name": "MODEX",
    "website": "https://www.modexshow.com/",
    "city": "Atlanta",
    "country": "United States",
    "venue": "Georgia World Congress Center",
    "start_date": "2026-04-13",
    "end_date": "2026-04-16",
    "frequency": "Biennial",
    "industry": "Logistics & Supply Chain",
    "region": "North America",
    "tier": 2,
    "lat": 33.728,
    "lng": -84.3745
  },
  {
    "name": "Microsoft Ignite",
    "website": "https://ignite.microsoft.com/",
    "city": "Chicago",
    "country": "United States",
    "venue": "McCormick Place",
    "start_date": "2026-11-10",
    "end_date": "2026-11-14",
    "frequency": "Annual",
    "industry": "Technology & Electronics",
    "region": "North America",
    "tier": 2,
    "lat": 41.9035,
    "lng": -87.6458
  },
  {
    "name": "Money20/20 USA",
    "website": "https://us.money2020.com/",
    "city": "Las Vegas",
    "country": "United States",
    "venue": "Las Vegas Convention Center",
    "start_date": "2026-10-25",
    "end_date": "2026-10-28",
    "frequency": "Annual",
    "industry": "Finance & Fintech",
    "region": "North America",
    "tier": 1,
    "lat": 36.2098,
    "lng": -115.1001
  },
  {
    "name": "NAB Show",
    "website": "https://www.nabshow.com/",
    "city": "Las Vegas",
    "country": "United States",
    "venue": "Las Vegas Convention Center",
    "start_date": "2026-04-12",
    "end_date": "2026-04-16",
    "frequency": "Annual",
    "industry": "Technology & Electronics",
    "region": "North America",
    "tier": 1,
    "lat": 36.1385,
    "lng": -115.1355
  },
  {
    "name": "NBAA BACE",
    "website": "https://nbaa.org/events/bace/",
    "city": "Las Vegas",
    "country": "United States",
    "venue": "Las Vegas Convention Center",
    "start_date": "2026-10-20",
    "end_date": "2026-10-22",
    "frequency": "Annual",
    "industry": "Aerospace & Defense",
    "region": "North America",
    "tier": 1,
    "lat": 36.1967,
    "lng": -115.1332
  },
  {
    "name": "NRF Big Show",
    "website": "https://nrfbigshow.nrf.com/",
    "city": "New York",
    "country": "United States",
    "venue": "Javits Center",
    "start_date": "2026-01-11",
    "end_date": "2026-01-14",
    "frequency": "Annual",
    "industry": "Retail",
    "region": "North America",
    "tier": 2,
    "lat": 40.744,
    "lng": -74.0263
  },
  {
    "name": "NRF Retail's Big Show",
    "website": "https://nrfbigshow.nrf.com/",
    "city": "New York",
    "country": "United States",
    "venue": "Javits Center",
    "start_date": "2026-01-11",
    "end_date": "2026-01-13",
    "frequency": "Annual",
    "industry": "Retail",
    "region": "North America",
    "tier": 1,
    "lat": 40.7429,
    "lng": -74.0249
  },
  {
    "name": "NY NOW",
    "website": "https://www.nynow.com/",
    "city": "New York",
    "country": "United States",
    "venue": "Javits Center",
    "start_date": "2026-08-02",
    "end_date": "2026-08-04",
    "frequency": "Biannual",
    "industry": "Consumer Goods",
    "region": "North America",
    "tier": 2,
    "lat": 40.7503,
    "lng": -73.9719
  },
  {
    "name": "Natural Products Expo West",
    "website": "https://www.expowest.com/",
    "city": "Anaheim",
    "country": "United States",
    "venue": "Anaheim Convention Center",
    "start_date": "2026-03-03",
    "end_date": "2026-03-07",
    "frequency": "Annual",
    "industry": "Food & Beverage",
    "region": "North America",
    "tier": 1,
    "lat": 33.8608,
    "lng": -117.8852
  },
  {
    "name": "Offshore Technology Conference",
    "website": "https://www.otcnet.org/",
    "city": "Houston",
    "country": "United States",
    "venue": "NRG Center",
    "start_date": "2026-05-04",
    "end_date": "2026-05-07",
    "frequency": "Annual",
    "industry": "Energy & Environment",
    "region": "North America",
    "tier": 1,
    "lat": 29.7881,
    "lng": -95.4024
  },
  {
    "name": "Oracle CloudWorld",
    "website": "https://www.oracle.com/cloudworld/",
    "city": "Las Vegas",
    "country": "United States",
    "venue": "Las Vegas Convention Center",
    "start_date": "2026-09-20",
    "end_date": "2026-09-25",
    "frequency": "Annual",
    "industry": "Technology & Electronics",
    "region": "North America",
    "tier": 2,
    "lat": 36.183,
    "lng": -115.1047
  },
  {
    "name": "PACK EXPO International",
    "website": "https://www.packexpointernational.com/",
    "city": "Chicago",
    "country": "United States",
    "venue": "McCormick Place",
    "start_date": "2026-10-18",
    "end_date": "2026-10-21",
    "frequency": "Biennial",
    "industry": "Packaging",
    "region": "North America",
    "tier": 2,
    "lat": 41.8381,
    "lng": -87.6439
  },
  {
    "name": "ProMat",
    "website": "https://www.promatshow.com/",
    "city": "Chicago",
    "country": "United States",
    "venue": "McCormick Place",
    "start_date": "2027-03-22",
    "end_date": "2027-03-25",
    "frequency": "Biennial",
    "industry": "Logistics & Supply Chain",
    "region": "North America",
    "tier": 1,
    "lat": 41.8628,
    "lng": -87.5979
  },
  {
    "name": "RSA Conference",
    "website": "https://www.rsaconference.com/",
    "city": "San Francisco",
    "country": "United States",
    "venue": "Moscone Center",
    "start_date": "2026-05-04",
    "end_date": "2026-05-07",
    "frequency": "Annual",
    "industry": "Cybersecurity",
    "region": "North America",
    "tier": 1,
    "lat": 37.774,
    "lng": -122.387
  },
  {
    "name": "RSNA",
    "website": "https://www.rsna.org/annual-meeting",
    "city": "Chicago",
    "country": "United States",
    "venue": "McCormick Place",
    "start_date": "2026-11-29",
    "end_date": "2026-12-04",
    "frequency": "Annual",
    "industry": "Healthcare & Medical",
    "region": "North America",
    "tier": 1,
    "lat": 41.8563,
    "lng": -87.6466
  },
  {
    "name": "SEMA Show",
    "website": "https://www.semashow.com/",
    "city": "Las Vegas",
    "country": "United States",
    "venue": "Las Vegas Convention Center",
    "start_date": "2026-11-03",
    "end_date": "2026-11-06",
    "frequency": "Annual",
    "industry": "Automotive",
    "region": "North America",
    "tier": 1,
    "lat": 36.135,
    "lng": -115.1493
  },
  {
    "name": "SEMICON West",
    "website": "https://www.semiconwest.org/",
    "city": "San Francisco",
    "country": "United States",
    "venue": "Moscone Center",
    "start_date": "2026-07-14",
    "end_date": "2026-07-16",
    "frequency": "Annual",
    "industry": "Technology & Electronics",
    "region": "North America",
    "tier": 2,
    "lat": 37.8097,
    "lng": -122.4137
  },
  {
    "name": "SIAL North America",
    "website": "https://www.sialna.com/",
    "city": "Montreal",
    "country": "Canada",
    "venue": "Palais des congrès de Montréal",
    "start_date": "2026-04-28",
    "end_date": "2026-04-30",
    "frequency": "Annual",
    "industry": "Food & Beverage",
    "region": "North America",
    "tier": 2,
    "lat": 45.5247,
    "lng": -73.5987
  },
  {
    "name": "SXSW",
    "website": "https://www.sxsw.com/",
    "city": "Austin",
    "country": "United States",
    "venue": "Austin Convention Center",
    "start_date": "2026-03-13",
    "end_date": "2026-03-21",
    "frequency": "Annual",
    "industry": "Technology & Electronics",
    "region": "North America",
    "tier": 2,
    "lat": 30.2525,
    "lng": -97.723
  },
  {
    "name": "Salesforce Dreamforce",
    "website": "https://www.salesforce.com/dreamforce/",
    "city": "San Francisco",
    "country": "United States",
    "venue": "Moscone Center",
    "start_date": "2026-09-15",
    "end_date": "2026-09-18",
    "frequency": "Annual",
    "industry": "Technology & Electronics",
    "region": "North America",
    "tier": 1,
    "lat": 37.7838,
    "lng": -122.3804
  },
  {
    "name": "Shoptalk",
    "website": "https://shoptalk.com/",
    "city": "Las Vegas",
    "country": "United States",
    "venue": "Las Vegas Convention Center",
    "start_date": "2026-03-22",
    "end_date": "2026-03-25",
    "frequency": "Annual",
    "industry": "Retail",
    "region": "North America",
    "tier": 2,
    "lat": 36.1634,
    "lng": -115.1331
  },
  {
    "name": "Sweets & Snacks Expo",
    "website": "https://www.sweetsandsnacks.com/",
    "city": "Indianapolis",
    "country": "United States",
    "venue": "Indiana Convention Center",
    "start_date": "2026-05-12",
    "end_date": "2026-05-14",
    "frequency": "Annual",
    "industry": "Food & Beverage",
    "region": "North America",
    "tier": 2,
    "lat": 39.7587,
    "lng": -86.1539
  },
  {
    "name": "TechCrunch Disrupt",
    "website": "https://techcrunch.com/events/",
    "city": "San Francisco",
    "country": "United States",
    "venue": "Moscone Center",
    "start_date": "2026-10-20",
    "end_date": "2026-10-22",
    "frequency": "Annual",
    "industry": "Technology & Electronics",
    "region": "North America",
    "tier": 2,
    "lat": 37.7932,
    "lng": -122.4343
  },
  {
    "name": "Texworld USA",
    "website": "https://texworld-usa.us.messefrankfurt.com/",
    "city": "New York",
    "country": "United States",
    "venue": "Javits Center",
    "start_date": "2026-07-21",
    "end_date": "2026-07-23",
    "frequency": "Biannual",
    "industry": "Fashion & Textiles",
    "region": "North America",
    "tier": 2,
    "lat": 40.7526,
    "lng": -74.0052
  },
  {
    "name": "World Agri-Tech Innovation Summit",
    "website": "https://worldagritechusa.com/",
    "city": "San Francisco",
    "country": "United States",
    "venue": "Moscone Center",
    "start_date": "2026-03-24",
    "end_date": "2026-03-25",
    "frequency": "Annual",
    "industry": "Agriculture",
    "region": "North America",
    "tier": 2,
    "lat": 37.7834,
    "lng": -122.4185
  },
  {
    "name": "World of Concrete",
    "website": "https://www.worldofconcrete.com/",
    "city": "Las Vegas",
    "country": "United States",
    "venue": "Las Vegas Convention Center",
    "start_date": "2026-01-20",
    "end_date": "2026-01-23",
    "frequency": "Annual",
    "industry": "Construction & Building Materials",
    "region": "North America",
    "tier": 1,
    "lat": 36.1991,
    "lng": -115.1017
  }
]